{
"type": "FeatureCollection",
"crs": { "type": "name", "properties": { "name": "urn:ogc:def:crs:OGC:1.3:CRS84" } },
                                                                                
"features": [
{ "type": "Feature", "properties": { "NAME": "NAIT (Calgary)", "ADDRESS": "816 55 Avenue NE", "TYPE": "Post Secondary", "SUB_TYPE": null, "MUNI": "Calgary" }, "geometry": { "type": "Point", "coordinates": [ -114.04424, 51.102649 ] } },
{ "type": "Feature", "properties": { "NAME": "University of Lethbridge Calgary Campus", "ADDRESS": "345 6 Ave SE", "TYPE": "Post Secondary", "SUB_TYPE": null, "MUNI": "Calgary" }, "geometry": { "type": "Point", "coordinates": [ -114.05583, 51.046334 ] } },
{ "type": "Feature", "properties": { "NAME": "St. Mary's University", "ADDRESS": "14500 Bannister Road SE", "TYPE": "Post Secondary", "SUB_TYPE": null, "MUNI": "Calgary" }, "geometry": { "type": "Point", "coordinates": [ -114.06741, 50.922797 ] } },
{ "type": "Feature", "properties": { "NAME": "The Banff Centre", "ADDRESS": "107 Tunnel Mountain Dr", "TYPE": "Post Secondary", "SUB_TYPE": null, "MUNI": "Banff" }, "geometry": { "type": "Point", "coordinates": [ -115.55981, 51.170375 ] } },
{ "type": "Feature", "properties": { "NAME": "Calgary Courts Centre", "ADDRESS": "601 - 5 Street SW", "TYPE": "Court", "SUB_TYPE": "Provincial Court", "MUNI": "Calgary" }, "geometry": { "type": "Point", "coordinates": [ -114.074336, 51.047296 ] } },
{ "type": "Feature", "properties": { "NAME": "Provincial Court Strathmore", "ADDRESS": "226 - 2 Ave", "TYPE": "Court", "SUB_TYPE": "Provincial Court", "MUNI": "Strathmore" }, "geometry": { "type": "Point", "coordinates": [ -113.39728, 51.042858 ] } },
{ "type": "Feature", "properties": { "NAME": "Provincial Court Airdrie", "ADDRESS": "Suite 113, 104 - 1st Ave NW", "TYPE": "Court", "SUB_TYPE": "Provincial Court", "MUNI": "Airdrie" }, "geometry": { "type": "Point", "coordinates": [ -114.01325, 51.292943 ] } },
{ "type": "Feature", "properties": { "NAME": "Provincial Court Okotoks", "ADDRESS": "98 McRae St.", "TYPE": "Court", "SUB_TYPE": "Provincial Court", "MUNI": "Okotoks" }, "geometry": { "type": "Point", "coordinates": [ -113.96864, 50.725389 ] } },
{ "type": "Feature", "properties": { "NAME": "Provincial Court Tsuu T'ina Nation", "ADDRESS": "9911 Chula Blvd", "TYPE": "Court", "SUB_TYPE": "Provincial Court", "MUNI": "Sarcee" }, "geometry": { "type": "Point", "coordinates": [ -114.14583, 50.948401 ] } },
{ "type": "Feature", "properties": { "NAME": "Provincial Court Cochrane", "ADDRESS": "213-1 St., W", "TYPE": "Court", "SUB_TYPE": "Provincial Court", "MUNI": "Cochrane" }, "geometry": { "type": "Point", "coordinates": [ -114.46975, 51.190116 ] } },
{ "type": "Feature", "properties": { "NAME": "Provincial Court Canmore", "ADDRESS": "Suite 101, 800 Railway Ave.", "TYPE": "Court", "SUB_TYPE": "Provincial Court", "MUNI": "Canmore" }, "geometry": { "type": "Point", "coordinates": [ -115.35421, 51.089778 ] } },
{ "type": "Feature", "properties": { "NAME": "Court of Appeal Calgary", "ADDRESS": "450 - 1st St. SW", "TYPE": "Court", "SUB_TYPE": "Court of Appeal", "MUNI": "Calgary" }, "geometry": { "type": "Point", "coordinates": [ -114.06443, 51.049229 ] } },
{ "type": "Feature", "properties": { "NAME": "Alberta Health Services Historic Collections", "ADDRESS": "1117 55 Avenue NE", "TYPE": "Museum", "SUB_TYPE": null, "MUNI": "Calgary" }, "geometry": { "type": "Point", "coordinates": [ -114.03825, 51.102241 ] } },
{ "type": "Feature", "properties": { "NAME": "Army Museum of Alberta", "ADDRESS": "4520 Crowchild Trail SW", "TYPE": "Museum", "SUB_TYPE": null, "MUNI": "Calgary" }, "geometry": { "type": "Point", "coordinates": [ -114.11768, 51.01389 ] } },
{ "type": "Feature", "properties": { "NAME": "Buffalo Nations Luxton Museum", "ADDRESS": "1 Birch Avenue", "TYPE": "Museum", "SUB_TYPE": null, "MUNI": "Banff" }, "geometry": { "type": "Point", "coordinates": [ -115.57669, 51.172321 ] } },
{ "type": "Feature", "properties": { "NAME": "Canada's Sports Hall of Fame", "ADDRESS": "169 Canada Olympic Road SW", "TYPE": "Museum", "SUB_TYPE": null, "MUNI": "Calgary" }, "geometry": { "type": "Point", "coordinates": [ -114.222, 51.083451 ] } },
{ "type": "Feature", "properties": { "NAME": "Canmore Museum & Geoscience Centre", "ADDRESS": "902B - 7 Avenue", "TYPE": "Museum", "SUB_TYPE": null, "MUNI": "Canmore" }, "geometry": { "type": "Point", "coordinates": [ -115.3607, 51.089522 ] } },
{ "type": "Feature", "properties": { "NAME": "Firefighters Museum", "ADDRESS": "4124 11 Street SE", "TYPE": "Museum", "SUB_TYPE": null, "MUNI": "Calgary" }, "geometry": { "type": "Point", "coordinates": [ -114.03591, 51.018552 ] } },
{ "type": "Feature", "properties": { "NAME": "Glenbow Museum", "ADDRESS": "130 - 9th Avenue SE", "TYPE": "Museum", "SUB_TYPE": null, "MUNI": "Calgary" }, "geometry": { "type": "Point", "coordinates": [ -114.06112, 51.044969 ] } },
{ "type": "Feature", "properties": { "NAME": "Heritage Park Historical Village", "ADDRESS": "1900 Heritage Drive SW", "TYPE": "Museum", "SUB_TYPE": null, "MUNI": "Calgary" }, "geometry": { "type": "Point", "coordinates": [ -114.10703, 50.98425 ] } },
{ "type": "Feature", "properties": { "NAME": "Calgary Correctional Centre", "ADDRESS": "11808 - 85 Street NW", "TYPE": "Correctional", "SUB_TYPE": "Correctional Centre", "MUNI": "Calgary" }, "geometry": { "type": "Point", "coordinates": [ -114.206662, 51.15632 ] } },
{ "type": "Feature", "properties": { "NAME": "Cameron Crossing", "ADDRESS": "35 S Railway St", "TYPE": "Post Secondary", "SUB_TYPE": "Open Campus", "MUNI": "Okotoks" }, "geometry": { "type": "Point", "coordinates": [ -113.967987, 50.723225 ] } },
{ "type": "Feature", "properties": { "NAME": "Education Plus – Diamond Valley", "ADDRESS": "112 Centre Ave. W", "TYPE": "Post Secondary", "SUB_TYPE": "Open Campus", "MUNI": "Black Diamond" }, "geometry": { "type": "Point", "coordinates": [ -114.23346, 50.688475 ] } },
{ "type": "Feature", "properties": { "NAME": "Education Plus – High River", "ADDRESS": "1204 10th Ave. SE", "TYPE": "Post Secondary", "SUB_TYPE": "Open Campus", "MUNI": "High River" }, "geometry": { "type": "Point", "coordinates": [ -113.85046, 50.570819 ] } },
{ "type": "Feature", "properties": { "NAME": "High River Fire Department 2", "ADDRESS": "1018 Highland Green Dr NW", "TYPE": "Emergency Services", "SUB_TYPE": "Fire Station", "MUNI": "High River" }, "geometry": { "type": "Point", "coordinates": [ -113.88596, 50.593524 ] } },
{ "type": "Feature", "properties": { "NAME": "Nanton Fire Department", "ADDRESS": "2504 21 Ave", "TYPE": "Emergency Services", "SUB_TYPE": "Fire Station", "MUNI": "Nanton" }, "geometry": { "type": "Point", "coordinates": [ -113.7706, 50.343313 ] } },
{ "type": "Feature", "properties": { "NAME": "Turner Valley Fire Department", "ADDRESS": "102 Royal Ave NE", "TYPE": "Emergency Services", "SUB_TYPE": "Fire Station", "MUNI": "Turner Valley" }, "geometry": { "type": "Point", "coordinates": [ -114.27837, 50.677794 ] } },
{ "type": "Feature", "properties": { "NAME": "Okotoks Fire Department", "ADDRESS": "132 Milligan Dr", "TYPE": "Emergency Services", "SUB_TYPE": "Fire Station", "MUNI": "Okotoks" }, "geometry": { "type": "Point", "coordinates": [ -113.96183, 50.731826 ] } },
{ "type": "Feature", "properties": { "NAME": "Redwood Meadows Emergency Services", "ADDRESS": "1 Redwood Meadows Dr", "TYPE": "Emergency Services", "SUB_TYPE": "Fire Station", "MUNI": "Redwood Meadows" }, "geometry": { "type": "Point", "coordinates": [ -114.50203, 50.987923 ] } },
{ "type": "Feature", "properties": { "NAME": "Rockyview Fire Service - Elbow Valley", "ADDRESS": "31001 Lott Creek Dr", "TYPE": "Emergency Services", "SUB_TYPE": "Fire Station", "MUNI": "Calgary" }, "geometry": { "type": "Point", "coordinates": [ -114.30677, 51.017846 ] } },
{ "type": "Feature", "properties": { "NAME": "Langdon Fire Station 111", "ADDRESS": "12 Railway Avenue", "TYPE": "Emergency Services", "SUB_TYPE": "Fire Station", "MUNI": "Langdon" }, "geometry": { "type": "Point", "coordinates": [ -113.67866, 50.969387 ] } },
{ "type": "Feature", "properties": { "NAME": "Chestermere Lake Fire\/Rescue", "ADDRESS": "156 E Chestermere Dr", "TYPE": "Emergency Services", "SUB_TYPE": "Fire Station", "MUNI": "Chestermere" }, "geometry": { "type": "Point", "coordinates": [ -113.814272, 51.050554 ] } },
{ "type": "Feature", "properties": { "NAME": "Irricana Fire Station 108", "ADDRESS": "230 1 Ave", "TYPE": "Emergency Services", "SUB_TYPE": "Fire Station", "MUNI": "Irricana" }, "geometry": { "type": "Point", "coordinates": [ -113.609094, 51.322876 ] } },
{ "type": "Feature", "properties": { "NAME": "Beiseker Fire Department", "ADDRESS": "309 5 St", "TYPE": "Emergency Services", "SUB_TYPE": "Fire Station", "MUNI": "Beiseker" }, "geometry": { "type": "Point", "coordinates": [ -113.53496, 51.384665 ] } },
{ "type": "Feature", "properties": { "NAME": "High River Fire Department 1", "ADDRESS": "1010 5 St SE", "TYPE": "Emergency Services", "SUB_TYPE": "Fire Station", "MUNI": "High River" }, "geometry": { "type": "Point", "coordinates": [ -113.87916, 50.573003 ] } },
{ "type": "Feature", "properties": { "NAME": "Cochrane Protective Services Centre", "ADDRESS": "20 Grande Blvd", "TYPE": "Emergency Services", "SUB_TYPE": "Fire Station", "MUNI": "Cochrane" }, "geometry": { "type": "Point", "coordinates": [ -114.47399, 51.183554 ] } },
{ "type": "Feature", "properties": { "NAME": "Fire Station 52", "ADDRESS": "4 Sunset Square", "TYPE": "Emergency Services", "SUB_TYPE": "Fire Station", "MUNI": "Cochrane" }, "geometry": { "type": "Point", "coordinates": [ -114.46815, 51.214157 ] } },
{ "type": "Feature", "properties": { "NAME": "Bighorn Emergency Services - Ghost River", "ADDRESS": "64095 AB-40", "TYPE": "Emergency Services", "SUB_TYPE": "Fire Station", "MUNI": "Benchlands" }, "geometry": { "type": "Point", "coordinates": [ -114.80787, 51.286602 ] } },
{ "type": "Feature", "properties": { "NAME": "Rockyview Fire Service - Balzac", "ADDRESS": "291015 Rocky View Dr", "TYPE": "Emergency Services", "SUB_TYPE": "Fire Station", "MUNI": "Balzac" }, "geometry": { "type": "Point", "coordinates": [ -113.93531, 51.216012 ] } },
{ "type": "Feature", "properties": { "NAME": "Crossfield Volunteer Fire Department", "ADDRESS": "1601 Railway St", "TYPE": "Emergency Services", "SUB_TYPE": "Fire Station", "MUNI": "Crossfield" }, "geometry": { "type": "Point", "coordinates": [ -114.02619, 51.4302 ] } },
{ "type": "Feature", "properties": { "NAME": "Black Diamond Fire Hall", "ADDRESS": "Valley Rd NE & Sunset Blvd NW", "TYPE": "Emergency Services", "SUB_TYPE": "Fire Station", "MUNI": "Black Diamond" }, "geometry": { "type": "Point", "coordinates": [ -114.27887, 50.673907 ] } },
{ "type": "Feature", "properties": { "NAME": "Exshaw Firehall", "ADDRESS": "Near Bow Valley Trail", "TYPE": "Emergency Services", "SUB_TYPE": "Fire Station", "MUNI": "Exshaw" }, "geometry": { "type": "Point", "coordinates": [ -115.162196, 51.059878 ] } },
{ "type": "Feature", "properties": { "NAME": "Jamieson Road Fire Hall", "ADDRESS": "264001 Range Rd 64", "TYPE": "Emergency Services", "SUB_TYPE": "Fire Station", "MUNI": "Bighorn No.8" }, "geometry": { "type": "Point", "coordinates": [ -114.79517, 51.241907 ] } },
{ "type": "Feature", "properties": { "NAME": "Springbank Fire Station 102", "ADDRESS": "128 MacLaurin Dr", "TYPE": "Emergency Services", "SUB_TYPE": "Fire Station", "MUNI": "Calgary" }, "geometry": { "type": "Point", "coordinates": [ -114.37323, 51.098042 ] } },
{ "type": "Feature", "properties": { "NAME": "Rocky View County Fire Station #103", "ADDRESS": "31211 Lochend Pl", "TYPE": "Emergency Services", "SUB_TYPE": "Fire Station", "MUNI": "Calgary" }, "geometry": { "type": "Point", "coordinates": [ -114.32133, 51.170164 ] } },
{ "type": "Feature", "properties": { "NAME": "Fire Station 105", "ADDRESS": "285052 Symons Valley Rd NW", "TYPE": "Emergency Services", "SUB_TYPE": "Fire Station", "MUNI": "Madden" }, "geometry": { "type": "Point", "coordinates": [ -114.2827, 51.434098 ] } },
{ "type": "Feature", "properties": { "NAME": "Caresland Fire Department", "ADDRESS": "Railway Ave", "TYPE": "Emergency Services", "SUB_TYPE": "Fire Station", "MUNI": "Carseland" }, "geometry": { "type": "Point", "coordinates": [ -113.467313, 50.850311 ] } },
{ "type": "Feature", "properties": { "NAME": "Dalum Rural Fire Department", "ADDRESS": "Hwy 5-69", "TYPE": "Emergency Services", "SUB_TYPE": "Fire Station", "MUNI": "Dalum" }, "geometry": { "type": "Point", "coordinates": [ -112.63154, 51.300038 ] } },
{ "type": "Feature", "properties": { "NAME": "Gleichen Rural Fire Department", "ADDRESS": null, "TYPE": "Emergency Services", "SUB_TYPE": "Fire Station", "MUNI": "Gleichen" }, "geometry": { "type": "Point", "coordinates": [ -113.03234, 50.866834 ] } },
{ "type": "Feature", "properties": { "NAME": "Hussar Rural Fire Department", "ADDRESS": null, "TYPE": "Emergency Services", "SUB_TYPE": "Fire Station", "MUNI": "Hussar" }, "geometry": { "type": "Point", "coordinates": [ 134.363095, 51.045299 ] } },
{ "type": "Feature", "properties": { "NAME": "Rockyford Fire Department", "ADDRESS": "104 Main St", "TYPE": "Emergency Services", "SUB_TYPE": "Fire Station", "MUNI": "Rockyford" }, "geometry": { "type": "Point", "coordinates": [ -113.14049, 51.23307 ] } },
{ "type": "Feature", "properties": { "NAME": "Rosebud Rural Fire Department", "ADDRESS": "Railway Ave", "TYPE": "Emergency Services", "SUB_TYPE": "Fire Station", "MUNI": "Rosebud" }, "geometry": { "type": "Point", "coordinates": [ -112.94965, 51.299098 ] } },
{ "type": "Feature", "properties": { "NAME": "Standard Rural Fire Department", "ADDRESS": "225 11 Ave E", "TYPE": "Emergency Services", "SUB_TYPE": "Fire Station", "MUNI": "Standard" }, "geometry": { "type": "Point", "coordinates": [ -112.97351, 51.112352 ] } },
{ "type": "Feature", "properties": { "NAME": "Gleichen RCMP", "ADDRESS": "508 4 Ave", "TYPE": "Emergency Services", "SUB_TYPE": "RCMP", "MUNI": "Gleichen" }, "geometry": { "type": "Point", "coordinates": [ -113.05713, 50.866433 ] } },
{ "type": "Feature", "properties": { "NAME": "Strathmore RCMP Detatchment", "ADDRESS": "500 Westlake Rd", "TYPE": "Emergency Services", "SUB_TYPE": "RCMP", "MUNI": "Strathmore" }, "geometry": { "type": "Point", "coordinates": [ -113.40251, 51.039241 ] } },
{ "type": "Feature", "properties": { "NAME": "Chestermere RCMP", "ADDRESS": "156 E Chestermere Dr", "TYPE": "Emergency Services", "SUB_TYPE": "RCMP", "MUNI": "Chestermere" }, "geometry": { "type": "Point", "coordinates": [ -113.80921, 51.0376 ] } },
{ "type": "Feature", "properties": { "NAME": "Turner Valley RCMP", "ADDRESS": "307 Main St NE", "TYPE": "Emergency Services", "SUB_TYPE": "RCMP", "MUNI": "Turner Valley" }, "geometry": { "type": "Point", "coordinates": [ -114.27893, 50.67623 ] } },
{ "type": "Feature", "properties": { "NAME": "Okotoks RCMP", "ADDRESS": "98 Woodhaven Dr", "TYPE": "Emergency Services", "SUB_TYPE": "RCMP", "MUNI": "Okotoks" }, "geometry": { "type": "Point", "coordinates": [ -113.97956, 50.717984 ] } },
{ "type": "Feature", "properties": { "NAME": "Nanton RCMP", "ADDRESS": "2501 21 St", "TYPE": "Emergency Services", "SUB_TYPE": "RCMP", "MUNI": "Nanton" }, "geometry": { "type": "Point", "coordinates": [ -113.77906, 50.343709 ] } },
{ "type": "Feature", "properties": { "NAME": "Canmore RCMP", "ADDRESS": "101 Elk Run Blvd", "TYPE": "Emergency Services", "SUB_TYPE": "RCMP", "MUNI": "Canmore" }, "geometry": { "type": "Point", "coordinates": [ -115.323603, 51.076324 ] } },
{ "type": "Feature", "properties": { "NAME": "Banff RCMP", "ADDRESS": "335 Lynx St", "TYPE": "Emergency Services", "SUB_TYPE": "RCMP", "MUNI": "Banff" }, "geometry": { "type": "Point", "coordinates": [ -115.5763, 51.182332 ] } },
{ "type": "Feature", "properties": { "NAME": "Cochrane RCMP", "ADDRESS": "359 1 St E", "TYPE": "Emergency Services", "SUB_TYPE": "RCMP", "MUNI": "Cochrane" }, "geometry": { "type": "Point", "coordinates": [ -114.46161, 51.185046 ] } },
{ "type": "Feature", "properties": { "NAME": "Airdrie RCMP", "ADDRESS": "100 - 2 Highland Park WY NE", "TYPE": "Emergency Services", "SUB_TYPE": "RCMP", "MUNI": "Airdrie" }, "geometry": { "type": "Point", "coordinates": [ -113.98528, 51.302768 ] } },
{ "type": "Feature", "properties": { "NAME": "High River RCMP", "ADDRESS": "1104 - 14th Street SE", "TYPE": "Emergency Services", "SUB_TYPE": "RCMP", "MUNI": "High River" }, "geometry": { "type": "Point", "coordinates": [ -113.84725, 50.572458 ] } },
{ "type": "Feature", "properties": { "NAME": "Beiseker RCMP", "ADDRESS": "75 Alberta 72, Beiseker", "TYPE": "Emergency Services", "SUB_TYPE": "RCMP", "MUNI": "Beiseker" }, "geometry": { "type": "Point", "coordinates": [ -113.54377, 51.386971 ] } },
{ "type": "Feature", "properties": { "NAME": "Alberta Children's Hospital", "ADDRESS": "2888 Shaganappi Trail NW", "TYPE": "Medical", "SUB_TYPE": "Hospital", "MUNI": "Calgary" }, "geometry": { "type": "Point", "coordinates": [ -114.148534, 51.074788 ] } },
{ "type": "Feature", "properties": { "NAME": "Banff - Mineral Springs Hospital", "ADDRESS": "305 Lynx St", "TYPE": "Medical", "SUB_TYPE": "Hospital", "MUNI": "Banff" }, "geometry": { "type": "Point", "coordinates": [ -115.57599, 51.179064 ] } },
{ "type": "Feature", "properties": { "NAME": "Canmore General Hospital", "ADDRESS": "1100 Hospital Place", "TYPE": "Medical", "SUB_TYPE": "Hospital", "MUNI": "Canmore" }, "geometry": { "type": "Point", "coordinates": [ -115.3516, 51.092302 ] } },
{ "type": "Feature", "properties": { "NAME": "Foothills Medical Centre", "ADDRESS": "1403 29 Street NW", "TYPE": "Medical", "SUB_TYPE": "Hospital", "MUNI": "Calgary" }, "geometry": { "type": "Point", "coordinates": [ -114.13447, 51.06466 ] } },
{ "type": "Feature", "properties": { "NAME": "High River General Hospital", "ADDRESS": "560 9 Avenue SW", "TYPE": "Medical", "SUB_TYPE": "Hospital", "MUNI": "High River" }, "geometry": { "type": "Point", "coordinates": [ -113.87903, 50.575408 ] } },
{ "type": "Feature", "properties": { "NAME": "Oilfields General Hospital", "ADDRESS": "717 Government Rd", "TYPE": "Medical", "SUB_TYPE": "Hospital", "MUNI": "Black Diamond" }, "geometry": { "type": "Point", "coordinates": [ -114.23459, 50.677986 ] } },
{ "type": "Feature", "properties": { "NAME": "Peter Lougheed Centre", "ADDRESS": "3500 26 Ave NE", "TYPE": "Medical", "SUB_TYPE": "Hospital", "MUNI": "Calgary" }, "geometry": { "type": "Point", "coordinates": [ -113.984513, 51.079077 ] } },
{ "type": "Feature", "properties": { "NAME": "Rockyview General Hospital", "ADDRESS": "7007 14 St SW", "TYPE": "Medical", "SUB_TYPE": "Hospital", "MUNI": "Calgary" }, "geometry": { "type": "Point", "coordinates": [ -114.09651, 50.98988 ] } },
{ "type": "Feature", "properties": { "NAME": "South Health Campus", "ADDRESS": "4448 Front Street", "TYPE": "Medical", "SUB_TYPE": "Hospital", "MUNI": "Calgary" }, "geometry": { "type": "Point", "coordinates": [ -113.95215, 50.881906 ] } },
{ "type": "Feature", "properties": { "NAME": "Strathmore District Health Services", "ADDRESS": "200 Brent Boulevard", "TYPE": "Medical", "SUB_TYPE": "Hospital", "MUNI": "Strathmore" }, "geometry": { "type": "Point", "coordinates": [ -113.38373, 51.059568 ] } },
{ "type": "Feature", "properties": { "NAME": "Calgary Police - Airport Unit", "ADDRESS": "2000 AIRPORT RD NE", "TYPE": "Emergency Services", "SUB_TYPE": "Police", "MUNI": "Calgary" }, "geometry": { "type": "Point", "coordinates": [ -114.011520417999975, 51.134558527000081 ] } },
{ "type": "Feature", "properties": { "NAME": "Calgary Police -  North Services Centre", "ADDRESS": "6528 11 ST NE", "TYPE": "Emergency Services", "SUB_TYPE": "Police", "MUNI": "Calgary" }, "geometry": { "type": "Point", "coordinates": [ -114.035536847999978, 51.11177316800007 ] } },
{ "type": "Feature", "properties": { "NAME": "Calgary Police - Riverbend \/ Ogden Community Station", "ADDRESS": "#350 8338 18 ST SE", "TYPE": "Emergency Services", "SUB_TYPE": "Police", "MUNI": "Calgary" }, "geometry": { "type": "Point", "coordinates": [ -114.013605757, 50.976955350000026 ] } },
{ "type": "Feature", "properties": { "NAME": "Calgary Police - District 3 Office (Nose Hill)", "ADDRESS": "4303 14 ST NW", "TYPE": "Emergency Services", "SUB_TYPE": "Police", "MUNI": "Calgary" }, "geometry": { "type": "Point", "coordinates": [ -114.095563419999948, 51.091871769000079 ] } },
{ "type": "Feature", "properties": { "NAME": "Calgary Police - District 4 Office (Franklin)", "ADDRESS": "3207 12 AV NE", "TYPE": "Emergency Services", "SUB_TYPE": "Police", "MUNI": "Calgary" }, "geometry": { "type": "Point", "coordinates": [ -113.988072478, 51.062174689000074 ] } },
{ "type": "Feature", "properties": { "NAME": "Calgary Police - Westwinds Campus Headquarter", "ADDRESS": "5111 47 ST NE", "TYPE": "Emergency Services", "SUB_TYPE": "Police", "MUNI": "Calgary" }, "geometry": { "type": "Point", "coordinates": [ -113.971532005999961, 51.099355832000064 ] } },
{ "type": "Feature", "properties": { "NAME": "Calgary Police - Chinook Centre Mall Community Station", "ADDRESS": "6455 MACLEOD TR S", "TYPE": "Emergency Services", "SUB_TYPE": "Police", "MUNI": "Calgary" }, "geometry": { "type": "Point", "coordinates": [ -114.073954961999959, 50.999578005000039 ] } },
{ "type": "Feature", "properties": { "NAME": "Calgary Police - District 7 Office (Country Hills Village)", "ADDRESS": "11955 COUNTRY VILLAGE LI NE", "TYPE": "Emergency Services", "SUB_TYPE": "Police", "MUNI": "Calgary" }, "geometry": { "type": "Point", "coordinates": [ -114.067971795999938, 51.159428300000059 ] } },
{ "type": "Feature", "properties": { "NAME": "Calgary Police - District 1 Office (Ramsay)", "ADDRESS": "1010 26 AV SE", "TYPE": "Emergency Services", "SUB_TYPE": "Police", "MUNI": "Calgary" }, "geometry": { "type": "Point", "coordinates": [ -114.03901592699998, 51.030597373000035 ] } },
{ "type": "Feature", "properties": { "NAME": "Calgary Police - Market Mall Community Station", "ADDRESS": "3625 SHAGANAPPI TR NW", "TYPE": "Emergency Services", "SUB_TYPE": "Police", "MUNI": "Calgary" }, "geometry": { "type": "Point", "coordinates": [ -114.155392983999931, 51.083812910000056 ] } },
{ "type": "Feature", "properties": { "NAME": "Calgary Police - Brae Centre Community Station", "ADDRESS": "11430 BRAESIDE DR SW", "TYPE": "Emergency Services", "SUB_TYPE": "Police", "MUNI": "Calgary" }, "geometry": { "type": "Point", "coordinates": [ -114.116322941999954, 50.953118295000081 ] } },
{ "type": "Feature", "properties": { "NAME": "Calgary Police - District 6 Office (Heritage)", "ADDRESS": "8325 BONAVENTURE DR SE", "TYPE": "Emergency Services", "SUB_TYPE": "Police", "MUNI": "Calgary" }, "geometry": { "type": "Point", "coordinates": [ -114.068991189999963, 50.978949044000046 ] } },
{ "type": "Feature", "properties": { "NAME": "Calgary Police - District 8 Office (Midnapore)", "ADDRESS": "450 MIDPARK WY SE", "TYPE": "Emergency Services", "SUB_TYPE": "Police", "MUNI": "Calgary" }, "geometry": { "type": "Point", "coordinates": [ -114.059459307999973, 50.906384497000033 ] } },
{ "type": "Feature", "properties": { "NAME": "Calgary Police - District 5 Office (Saddleridge)", "ADDRESS": "800 SADDLETOWNE CI NE", "TYPE": "Emergency Services", "SUB_TYPE": "Police", "MUNI": "Calgary" }, "geometry": { "type": "Point", "coordinates": [ -113.944505146999973, 51.124302162000049 ] } },
{ "type": "Feature", "properties": { "NAME": "Calgary Police - District 2 Office (Rosscarrock)", "ADDRESS": "4506 17 AV SW", "TYPE": "Emergency Services", "SUB_TYPE": "Police", "MUNI": "Calgary" }, "geometry": { "type": "Point", "coordinates": [ -114.151298524999945, 51.038308678000078 ] } },
{ "type": "Feature", "properties": { "NAME": "Calgary Police - Victoria Park Station (Downtown)", "ADDRESS": "334 11 AV SE", "TYPE": "Emergency Services", "SUB_TYPE": "Police", "MUNI": "Calgary" }, "geometry": { "type": "Point", "coordinates": [ -114.05628928699997, 51.042292696000061 ] } },
{ "type": "Feature", "properties": { "NAME": "EMS Station 28", "ADDRESS": "7925 EDGEMONT BV NW", "TYPE": "Emergency Services", "SUB_TYPE": "EMS Station", "MUNI": "Calgary" }, "geometry": { "type": "Point", "coordinates": [ -114.150528136999966, 51.126284196000029 ] } },
{ "type": "Feature", "properties": { "NAME": "EMS Station 19", "ADDRESS": "13807 PARKLAND BV SE", "TYPE": "Emergency Services", "SUB_TYPE": "EMS Station", "MUNI": "Calgary" }, "geometry": { "type": "Point", "coordinates": [ -114.038799990999962, 50.929398090000056 ] } },
{ "type": "Feature", "properties": { "NAME": "EMS Station 14", "ADDRESS": "9840 HORTON RD SW", "TYPE": "Emergency Services", "SUB_TYPE": "EMS Station", "MUNI": "Calgary" }, "geometry": { "type": "Point", "coordinates": [ -114.074257587999966, 50.966000697000027 ] } },
{ "type": "Feature", "properties": { "NAME": "EMS Station 32", "ADDRESS": "29 SADDLE CREEK COVE NE", "TYPE": "Emergency Services", "SUB_TYPE": "EMS Station", "MUNI": "Calgary" }, "geometry": { "type": "Point", "coordinates": [ -113.952724118, 51.125777471000049 ] } },
{ "type": "Feature", "properties": { "NAME": "EMS Station 8", "ADDRESS": "1720 45 ST SW", "TYPE": "Emergency Services", "SUB_TYPE": "EMS Station", "MUNI": "Calgary" }, "geometry": { "type": "Point", "coordinates": [ -114.152119987999981, 51.038669762000033 ] } },
{ "type": "Feature", "properties": { "NAME": "EMS Station 4", "ADDRESS": "16 MONCTON RD NE", "TYPE": "Emergency Services", "SUB_TYPE": "EMS Station", "MUNI": "Calgary" }, "geometry": { "type": "Point", "coordinates": [ -114.04194940299999, 51.068806823000045 ] } },
{ "type": "Feature", "properties": { "NAME": "EMS Station 20", "ADDRESS": "2800 PEACEKEEPERS WY SW", "TYPE": "Emergency Services", "SUB_TYPE": "EMS Station", "MUNI": "Calgary" }, "geometry": { "type": "Point", "coordinates": [ -114.128723439999987, 51.006082486000082 ] } },
{ "type": "Feature", "properties": { "NAME": "EMS Station 31", "ADDRESS": "11955 COUNTRY VILLAGE LI NE", "TYPE": "Emergency Services", "SUB_TYPE": "EMS Station", "MUNI": "Calgary" }, "geometry": { "type": "Point", "coordinates": [ -114.068699682999963, 51.159856237000035 ] } },
{ "type": "Feature", "properties": { "NAME": "EMS Station 2", "ADDRESS": "1010 10 AV SW", "TYPE": "Emergency Services", "SUB_TYPE": "EMS Station", "MUNI": "Calgary" }, "geometry": { "type": "Point", "coordinates": [ -114.084279160999984, 51.044249963000027 ] } },
{ "type": "Feature", "properties": { "NAME": "EMS Headquarters", "ADDRESS": "3705 35 ST NE", "TYPE": "Emergency Services", "SUB_TYPE": "EMS Station", "MUNI": "Calgary" }, "geometry": { "type": "Point", "coordinates": [ -113.982363021999959, 51.085706192000032 ] } },
{ "type": "Feature", "properties": { "NAME": "EMS Station 11", "ADDRESS": "5536 4 ST SW", "TYPE": "Emergency Services", "SUB_TYPE": "EMS Station", "MUNI": "Calgary" }, "geometry": { "type": "Point", "coordinates": [ -114.071191831999954, 51.004189791000044 ] } },
{ "type": "Feature", "properties": { "NAME": "EMS Station 22", "ADDRESS": "7199 TEMPLE DR NE", "TYPE": "Emergency Services", "SUB_TYPE": "EMS Station", "MUNI": "Calgary" }, "geometry": { "type": "Point", "coordinates": [ -113.957495457999983, 51.091769794000072 ] } },
{ "type": "Feature", "properties": { "NAME": "EMS Station 21", "ADDRESS": "209 SILVERGROVE DR NW", "TYPE": "Emergency Services", "SUB_TYPE": "EMS Station", "MUNI": "Calgary" }, "geometry": { "type": "Point", "coordinates": [ -114.203008747999945, 51.115086831000042 ] } },
{ "type": "Feature", "properties": { "NAME": "EMS Station 12", "ADDRESS": "123 44 ST SE", "TYPE": "Emergency Services", "SUB_TYPE": "EMS Station", "MUNI": "Calgary" }, "geometry": { "type": "Point", "coordinates": [ -113.970542296999952, 51.051840104000064 ] } },
{ "type": "Feature", "properties": { "NAME": "EMS Station 24", "ADDRESS": "2607 106 AV SW", "TYPE": "Emergency Services", "SUB_TYPE": "EMS Station", "MUNI": "Calgary" }, "geometry": { "type": "Point", "coordinates": [ -114.121400435999988, 50.957446298000036 ] } },
{ "type": "Feature", "properties": { "NAME": "EMS Station 1", "ADDRESS": "450 1 ST SE", "TYPE": "Emergency Services", "SUB_TYPE": "EMS Station", "MUNI": "Calgary" }, "geometry": { "type": "Point", "coordinates": [ -114.059732181999948, 51.048602806000076 ] } },
{ "type": "Feature", "properties": { "NAME": "EMS Station 30", "ADDRESS": "6 MCKENZIE TOWNE GA SE", "TYPE": "Emergency Services", "SUB_TYPE": "EMS Station", "MUNI": "Calgary" }, "geometry": { "type": "Point", "coordinates": [ -113.96306397799998, 50.916440711000064 ] } },
{ "type": "Feature", "properties": { "NAME": "EMS Station 5", "ADDRESS": "4824 4 ST NW", "TYPE": "Emergency Services", "SUB_TYPE": "EMS Station", "MUNI": "Calgary" }, "geometry": { "type": "Point", "coordinates": [ -114.070979425999951, 51.095496079000043 ] } },
{ "type": "Feature", "properties": { "NAME": "EMS Station 23", "ADDRESS": "2727 26 AV SE", "TYPE": "Emergency Services", "SUB_TYPE": "EMS Station", "MUNI": "Calgary" }, "geometry": { "type": "Point", "coordinates": [ -113.993791725, 51.030132019000064 ] } },
{ "type": "Feature", "properties": { "NAME": "EMS Station 18", "ADDRESS": "415 68 AV NW", "TYPE": "Emergency Services", "SUB_TYPE": "EMS Station", "MUNI": "Calgary" }, "geometry": { "type": "Point", "coordinates": [ -114.067797153999948, 51.115464195000072 ] } },
{ "type": "Feature", "properties": { "NAME": "EMS Station 6", "ADDRESS": "1940 WESTMOUNT BV NW", "TYPE": "Emergency Services", "SUB_TYPE": "EMS Station", "MUNI": "Calgary" }, "geometry": { "type": "Point", "coordinates": [ -114.105035401999928, 51.049595314000044 ] } },
{ "type": "Feature", "properties": { "NAME": "EMS Station 3", "ADDRESS": "1807 MACLEOD TR SE", "TYPE": "Emergency Services", "SUB_TYPE": "EMS Station", "MUNI": "Calgary" }, "geometry": { "type": "Point", "coordinates": [ -114.058990904999973, 51.036665251000045 ] } },
{ "type": "Feature", "properties": { "NAME": "EMS Station 17", "ADDRESS": "3740 32 AV NW", "TYPE": "Emergency Services", "SUB_TYPE": "EMS Station", "MUNI": "Calgary" }, "geometry": { "type": "Point", "coordinates": [ -114.140121766999982, 51.081923534000055 ] } },
{ "type": "Feature", "properties": { "NAME": "EMS Station 26", "ADDRESS": "450 MIDPARK WY SE", "TYPE": "Emergency Services", "SUB_TYPE": "EMS Station", "MUNI": "Calgary" }, "geometry": { "type": "Point", "coordinates": [ -114.060524980999958, 50.90640961400004 ] } },
{ "type": "Feature", "properties": { "NAME": "EMS Station 9", "ADDRESS": "2515 78 AV SE", "TYPE": "Emergency Services", "SUB_TYPE": "EMS Station", "MUNI": "Calgary" }, "geometry": { "type": "Point", "coordinates": [ -114.001188267999964, 50.98288051600008 ] } },
{ "type": "Feature", "properties": { "NAME": "EMS Station 15", "ADDRESS": "5010 BOWNESS RD NW", "TYPE": "Emergency Services", "SUB_TYPE": "EMS Station", "MUNI": "Calgary" }, "geometry": { "type": "Point", "coordinates": [ -114.165175272999988, 51.075751036000042 ] } },
{ "type": "Feature", "properties": { "NAME": "EMS Station 34", "ADDRESS": "9 ROYAL BIRCH HILL NW", "TYPE": "Emergency Services", "SUB_TYPE": "EMS Station", "MUNI": "Calgary" }, "geometry": { "type": "Point", "coordinates": [ -114.219016542999952, 51.14734225400008 ] } },
{ "type": "Feature", "properties": { "NAME": "EMS Station 33", "ADDRESS": "7055 ELKTON DR SW", "TYPE": "Emergency Services", "SUB_TYPE": "EMS Station", "MUNI": "Calgary" }, "geometry": { "type": "Point", "coordinates": [ -114.188910379, 51.023638646000045 ] } },
{ "type": "Feature", "properties": { "NAME": "SAIT Polytechnic", "ADDRESS": "1301 16 AV NW", "TYPE": "Post Secondary", "SUB_TYPE": null, "MUNI": "Calgary" }, "geometry": { "type": "Point", "coordinates": [ -114.089298419999977, 51.064262877000026 ] } },
{ "type": "Feature", "properties": { "NAME": "University of Calgary", "ADDRESS": "2500 University DR NW", "TYPE": "Post Secondary", "SUB_TYPE": "University", "MUNI": "Calgary" }, "geometry": { "type": "Point", "coordinates": [ -114.130191718999967, 51.075399041000026 ] } },
{ "type": "Feature", "properties": { "NAME": "Art Smith Aero Centre", "ADDRESS": "1916 McCall LD NE", "TYPE": "Post Secondary", "SUB_TYPE": null, "MUNI": "Calgary" }, "geometry": { "type": "Point", "coordinates": [ -114.005568416999935, 51.10120155900006 ] } },
{ "type": "Feature", "properties": { "NAME": "Bow Valley College", "ADDRESS": "332 6 AV SE", "TYPE": "Post Secondary", "SUB_TYPE": "College", "MUNI": "Calgary" }, "geometry": { "type": "Point", "coordinates": [ -114.056274117999962, 51.047662352000032 ] } },
{ "type": "Feature", "properties": { "NAME": "Mount Royal University - City Centre Campus", "ADDRESS": "833 4 AV SW", "TYPE": "Post Secondary", "SUB_TYPE": "University", "MUNI": "Calgary" }, "geometry": { "type": "Point", "coordinates": [ -114.08026702899997, 51.049527326000025 ] } },
{ "type": "Feature", "properties": { "NAME": "Mount Royal University - Holy Cross Campus", "ADDRESS": "2204 2ST SW", "TYPE": "Post Secondary", "SUB_TYPE": null, "MUNI": "Calgary" }, "geometry": { "type": "Point", "coordinates": [ -114.068097494999961, 51.031981916000063 ] } },
{ "type": "Feature", "properties": { "NAME": "Mount Royal University - Lincoln Park Campus", "ADDRESS": "4825 Richard RD SW", "TYPE": "Post Secondary", "SUB_TYPE": null, "MUNI": "Calgary" }, "geometry": { "type": "Point", "coordinates": [ -114.132612457, 51.012662711000075 ] } },
{ "type": "Feature", "properties": { "NAME": "Alberta College of Art and Design", "ADDRESS": "1408 14 AV NW", "TYPE": "Post Secondary", "SUB_TYPE": "College", "MUNI": "Calgary" }, "geometry": { "type": "Point", "coordinates": [ -114.092289346999962, 51.063595252000027 ] } },
{ "type": "Feature", "properties": { "NAME": "University of Calgary - Downtown Campus", "ADDRESS": "906 8 AV SW", "TYPE": "Post Secondary", "SUB_TYPE": null, "MUNI": "Calgary" }, "geometry": { "type": "Point", "coordinates": [ -114.082127524999976, 51.046361300000058 ] } },
{ "type": "Feature", "properties": { "NAME": "Sheldon M. Chumir Health Centre", "ADDRESS": "1213 4 Street SW", "TYPE": "Medical", "SUB_TYPE": "Urgent Care Centre", "MUNI": "Calgary" }, "geometry": { "type": "Point", "coordinates": [ -114.071480867731808, 51.041659059243614 ] } },
{ "type": "Feature", "properties": { "NAME": "South Calgary Health Centre", "ADDRESS": "31 Sunpark  Plaza SE", "TYPE": "Medical", "SUB_TYPE": "Urgent Care Centre", "MUNI": "Calgary" }, "geometry": { "type": "Point", "coordinates": [ -114.045922010189457, 50.887903013557555 ] } },
{ "type": "Feature", "properties": { "NAME": "Cochrane Community Health Centre\r\nCochrane Community Health Centre", "ADDRESS": "60 Grande Boulevard", "TYPE": "Medical", "SUB_TYPE": "Urgent Care Centre", "MUNI": "Cochrane" }, "geometry": { "type": "Point", "coordinates": [ -114.464543923969259, 51.189907557419623 ] } },
{ "type": "Feature", "properties": { "NAME": "Airdrie Regional Community Health Centre", "ADDRESS": "604 Main Street S", "TYPE": "Medical", "SUB_TYPE": "Urgent Care Centre", "MUNI": "Airdrie" }, "geometry": { "type": "Point", "coordinates": [ -114.00944975919532, 51.253701883014052 ] } },
{ "type": "Feature", "properties": { "NAME": "Okotoks Health and Wellness Centre", "ADDRESS": "11 Cimarron Common", "TYPE": "Medical", "SUB_TYPE": "Urgent Care Centre", "MUNI": "Okotoks" }, "geometry": { "type": "Point", "coordinates": [ -113.971285967683144, 50.707151206565257 ] } },
{ "type": "Feature", "properties": { "NAME": "Calgary Remand Centre", "ADDRESS": "12200 - 85 Street NW", "TYPE": "Correctional", "SUB_TYPE": "Remand Centre", "MUNI": "Calgary" }, "geometry": { "type": "Point", "coordinates": [ -114.204672488462734, 51.157153358854444 ] } }
]
}
